"관리기관명",소재지도로명주소,소재지지번주소,설치목적구분,카메라대수,카메라화소수,촬영방면정보,보관일수,설치년월,관리기관전화번호,위도,경도,데이터기준일자
"강원도 속초시청",강원도 속초시 엑스포로 72 (조양동),강원도 속초시 조양동 1544-1,생활방범,2,200,엑스포타워놀이터공원,30,2017-07,033-639-2178,38.191597,128.5830666,2018-09-06
"강원도 속초시청",강원도 속초시 엑스포로 140 (교동),강원도 속초시 교동 1025-1,생활방범,2,200,석봉도자기미술관앞공원,30,2017-07,033-639-2178,38.1967965,128.5819721,2018-09-06
"강원도 속초시청",강원도 속초시 영랑동 131-188,강원도 속초시 영랑동 131-188,생활방범,2,200,영랑해안4길32공원놀이터,30,2017-07,033-639-2178,38.2155732,128.5956676,2018-09-06
"강원도 속초시청",강원도 속초시 노학동 산337,강원도 속초시 노학동 산337,생활방범,3,200,속초자생식물원,30,2017-07,033-639-2178,38.1968543,128.5235371,2018-09-06
"강원도 속초시청",강원도 속초시 청초호반로 296 (금호동),강원도 속초시 금호동 482-5,생활방범,1,200,속초시사회복지협의회놀이터,30,2017-07,033-639-2178,38.2013591,128.5893498,2018-09-06
"강원도 속초시청",강원도 속초시 미시령로 3388 (교동),강원도 속초시 교동 780-274,생활방범,1,200,설악중학교뒷편놀이터,30,2017-07,033-639-2178,38.2066454,128.5769499,2018-09-06
"강원도 속초시청",강원도 속초시 사진길 24 (장사동),강원도 속초시 장사동 632-78,생활방범,3,200,룸비니어린이집사거리,30,2017-02,033-639-2178,38.2225014,128.5874601,2018-09-06
"강원도 속초시청",강원도 속초시 노학동 65-1,강원도 속초시 노학동 65-1,생활방범,2,200,도리원마을,30,2017-02,033-639-2178,38.1942084,128.5628463,2018-09-06
"강원도 속초시청",강원도 속초시 교동 800-37,강원도 속초시 교동 800-37,생활방범,2,200,킹마트앞놀이터,30,2017-02,033-639-2178,38.2016407,128.5700896,2018-09-06
"강원도 속초시청",강원도 속초시 선사로1길 40-3 (조양동),강원도 속초시 조양동 1511-1,생활방범,2,200,청봉초교앞놀이터,30,2017-02,033-639-2178,38.1879238,128.5879322,2018-09-06
"강원도 속초시청",강원도 속초시 미시령로3337번길 6-15 (교동),강원도 속초시 교동 782-11,시설물관리,6,41,작은도서관 각 열람실,30,2017-12,033-639-3720,38.2060933,128.5717503,2018-09-06
"강원도 속초시청",강원도 속초시 영랑호반길 140 (금호동),강원도 속초시 금호동 600-7,재난재해,1,300,360도전방면,3,2017-11,033-639-2225,38.2142139,128.5807107,2018-09-06
"강원도 속초시청",강원도 속초시 도문동 산151,강원도 속초시 도문동 산151,재난재해,1,300,360도전방면,3,2017-11,033-639-2225,38.1779026,128.5712686,2018-09-06
"강원도 속초시청",강원도 속초시 도문동 산311,강원도 속초시 도문동 산311,재난재해,1,300,360도전방면,3,2017-11,033-639-2225,38.1709642,128.5275677,2018-09-06
"강원도 속초시청",강원도 속초시 설악동 836-9,강원도 속초시 설악동 836-9,재난재해,1,41,360도전방면,3,2017-03,033-639-2225,38.1536576,128.5564016,2018-09-06
"강원도 속초시청",강원도 속초시 노학동 산358,강원도 속초시 노학동 산358,재난재해,1,41,360도전방면,3,2017-03,033-639-2225,38.195792,128.5152319,2018-09-06
"강원도 속초시청",강원도 속초시 설악산로 25-8 (도문동),강원도 속초시 도문동 1656,시설물관리,3,41,쌍천취수장,0,2017-05,033-639-2985,38.1616154,128.6046426,2018-09-06
"강원도 속초시청",강원도 속초시 설악산로 25-8 (도문동),강원도 속초시 도문동 1656,시설물관리,2,200,쌍천취수장,0,2017-03,033-639-2985,38.1616154,128.6046426,2018-09-06
"강원도 속초시청",강원도 속초시 청봉로 271 (설악동),강원도 속초시 설악동 산17-1,시설물관리,2,41,설악취수장,0,2017-05,033-639-2985,38.1670508,128.5144612,2018-09-06
"강원도 속초시청",강원도 속초시 청봉로 271 (설악동),강원도 속초시 설악동 산17-1,시설물관리,1,200,설악취수장,0,2017-03,033-639-2985,38.1670508,128.5144612,2018-09-06
"강원도 속초시청",강원도 속초시 울산바위길 66-43 (노학동),강원도 속초시 노학동 산1-1,시설물관리,7,41,학사평정수장,0,2017-06,033-639-2985,38.202618,128.5053935,2018-09-06
"강원도 속초시청",강원도 속초시 떡밭재로 181 (조양동),강원도 속초시 조양동 817,시설물관리,8,41,속초정수장,0,2017-05,033-639-2985,38.1792287,128.579755,2018-09-06
"강원도 속초시청",강원도 속초시 떡밭재로 181 (조양동),강원도 속초시 조양동 817,시설물관리,1,200,속초정수장,0,2017-12,033-639-2985,38.1792287,128.579755,2018-09-06
"강원도 속초시청",강원도 속초시 수복로 46 (교동),강원도 속초시 교동 979,시설물관리,4,200,평생교육문화센터,30,2017-07,033-639-2955,38.196647,128.576525,2018-09-06
"강원도 속초시청",강원도 속초시 조양동 1529,강원도 속초시 조양동 1529,기타,3,130,속초조양동유적지,30,2017-04,033-639-2958,38.1880923,128.5907954,2018-09-06
"강원도 속초시청",강원도 속초시 농공단지1길 4 (대포동),강원도 속초시 대포동 942,시설물관리,16,50,동해안젓갈콤플렉스센터,20,2017-02,033-639-2461,38.175819,128.596441,2018-09-06
"강원도 속초시청",강원도 속초시 중앙로147번길 16 (중앙동),강원도 속초시 중앙동 471-4,시설물관리,122,41,속초관광수산시장,10,2017-11,033-639-2477,38.2044489,128.5901534,2018-09-06
"강원도 속초시청",강원도 속초시 방축길 60 (대포동),강원도 속초시 대포동 2-1,시설물관리,12,50,쓰레기매립장,30,2017-06,033-639-2577,38.175426,128.5892733,2018-09-06
"강원도 속초시청",강원도 속초시 신흥2길 16 (노학동),강원도 속초시 노학동 736-1,시설물관리,36,200,속초시립박물관,15,2017-06,033-639-2973,38.200816,128.538549,2018-09-06
"강원도 속초시청",강원도 속초시 중앙로 183 (중앙동),강원도 속초시 중앙동 469-6,시설물관리,7,200,속초시청본관,20,2017-09,033-639-2132,38.2068286,128.5919059,2018-09-06
"강원도 속초시청",강원도 속초시 수복로 36 (교동),강원도 속초시 교동 980,시설물관리,5,130,속초시보건소,30,2017-07,033-639-2550,38.196055,128.576122,2018-09-06
"강원도 속초시청",강원도 속초시 대포동 897,강원도 속초시 대포동 898,차량방범,2,130,양양방면,30,2017-04,033-639-2136,38.161001,128.608024,2018-09-06
"강원도 속초시청",강원도 속초시 대포동 178-66,강원도 속초시 대포동 178-67,차량방범,1,500,속초방면,30,2017-08,033-639-2136,38.1615901,128.608045,2018-09-06
"강원도 속초시청",강원도 속초시 만천1길,강원도 속초시 교동 909-10,생활방범,3,300,골목길 삼방향,30,2017-04,033-639-2136,38.200531,128.576603,2018-09-06
"강원도 속초시청",강원도 속초시 교동 900,강원도 속초시 교동 901,생활방범,4,300,도로 사방향,30,2017-04,033-639-2136,38.206049,128.580316,2018-09-06
"강원도 속초시청",강원도 속초시 청대로 204번길,강원도 속초시 조양동 1499-3,생활방범,4,300,도로 사방향,30,2017-04,033-639-2136,38.189202,128.580544,2018-09-06
"강원도 속초시청",강원도 속초시 조양로,강원도 속초시 조양동 1292-14,생활방범,4,300,도로 사방향,30,2017-04,033-639-2136,38.186544,128.598699,2018-09-06
"강원도 속초시청",강원도 속초시 수복로187번길,강원도 속초시 청학동 488-1,생활방범,4,300,도로 사방향,30,2017-08,033-639-2136,38.205769,128.584975,2018-09-06
"강원도 속초시청",강원도 속초시 번영로 67번길,강원도 속초시 금호동 625-17,생활방범,4,300,골목길 삼방향,30,2017-08,033-639-2136,38.206295,128.583935,2018-09-06
"강원도 속초시청",강원도 속초시 중앙로,강원도 속초시 장사동 619-1,생활방범,2,200,도로 양방향,30,2017-09,033-639-2136,38.224147,128.588202,2018-09-06
"강원도 속초시청",강원도 속초시 중앙로,강원도 속초시 영랑동 149-2,생활방범,2,200,도로 양방향,30,2017-09,033-639-2136,38.214651,128.595196,2018-09-06
"강원도 속초시청",강원도 속초시 장사동 418-27,강원도 속초시 장사동 418-27,쓰레기단속,2,200,영랑호습지공원,30,2017-10,033-639-2740,38.2131548,128.5695777,2018-09-06
"강원도 속초시청",강원도 속초시 관광로 325 (노학동),강원도 속초시 노학동 943-4,쓰레기단속,1,49,쓰레기집하장,5,2017-06,033-639-2337,38.1897296,128.5412169,2018-09-06
"강원도 속초시청",강원도 속초시 대포항1길 19 (대포동),강원도 속초시 대포동 421-59,쓰레기단속,1,49,쓰레기집하장,5,2017-06,033-639-2337,38.1753643,128.6059922,2018-09-06
"강원도 속초시청",강원도 속초시 중앙동 503-93,강원도 속초시 중앙동 503-93,쓰레기단속,1,49,쓰레기집하장,5,2017-10,033-639-2337,38.2077339,128.5867384,2018-09-06
"강원도 속초시청",강원도 속초시 노리5길 16 (노학동),강원도 속초시 노학동 319-1,쓰레기단속,1,49,쓰레기집하장,5,2017-10,033-639-2337,38.1902928,128.5560295,2018-09-06
"강원도 속초시청",강원도 속초시 청학동 486-235,강원도 속초시 청학동 486-235,쓰레기단속,1,49,쓰레기집하장,5,2017-10,033-639-2337,38.202856,128.5865623,2018-09-06
"강원도 속초시청",강원도 속초시 청학동 634-32,강원도 속초시 청학동 634-32,쓰레기단속,1,49,쓰레기집하장,5,2017-10,033-639-2337,38.2036075,128.5834638,2018-09-06
"강원도 속초시청",강원도 속초시 청호로6길 14-1 (청호동),강원도 속초시 청호동 432-38,쓰레기단속,1,49,쓰레기집하장,5,2017-10,033-639-2337,38.1958099,128.5977568,2018-09-06
"강원도 속초시청",강원도 속초시 교동 636-70,강원도 속초시 교동 636-70,쓰레기단속,1,49,쓰레기집하장,5,2017-06,033-639-2337,38.2025368,128.5808246,2018-09-06
"강원도 속초시청",강원도 속초시 대포동 산1-1,강원도 속초시 대포동 산1-1,시설물관리,2,41,설악정수장,0,2017-05,033-639-2985,38.1736225,128.5933107,2018-09-06
"강원도 속초시청",강원도 속초시 교동 766-5,강원도 속초시 교동 766-5,쓰레기단속,1,49,쓰레기집하장,5,2017-06,033-639-2337,38.1987498,128.5746362,2018-09-06
"강원도 속초시청",강원도 속초시 영랑동 160-6,강원도 속초시 영랑동 160-6,쓰레기단속,1,49,쓰레기집하장,5,2017-08,033-639-2337,38.2161805,128.5917396,2018-09-06
"강원도 속초시청",강원도 속초시 조양동 1480,강원도 속초시 조양동 1480,쓰레기단속,1,49,쓰레기집하장,5,2017-08,033-639-2337,38.1866087,128.6022693,2018-09-06
"강원도 속초시청",강원도 속초시 새마을길 17 (조양동),강원도 속초시 조양동 1480-190,쓰레기단속,1,200,쓰레기집하장,5,2017-05,033-639-2337,38.1867253,128.6023798,2018-09-06
"강원도 속초시청",강원도 속초시 조양로21번길 4 (조양동),강원도 속초시 조양동 1310-7,어린이보호,3,200,리라유치원,30,2017-12,033-639-2494,38.186112,128.5983727,2018-09-06
"강원도 속초시청",강원도 속초시 조양로22번길 13 (조양동),강원도 속초시 조양동 1376-35,어린이보호,3,200,아이사랑어린이집,30,2017-12,033-639-2494,38.1875413,128.5997165,2018-09-06
"강원도 속초시청",강원도 속초시 조양로 166,강원도 속초시 조양동 1501,어린이보호,3,200,한슬어린이집,30,2017-12,033-639-2494,38.1885131,128.5813194,2018-09-06
"강원도 속초시청",강원도 속초시 도문동 산308-3,강원도 속초시 도문동 산308-3,시설물관리,3,200,목우재터널,30,2017-12,033-639-2494,38.1738147,128.5289818,2018-09-06
"강원도 속초시청",강원도 속초시 장사동 산 267-1,강원도 속초시 장사동 산 267-1,쓰레기단속,1,200,쓰레기집하장,,2017-07,033-639-2337,38.223893,128.585152,2018-09-06
"강원도 속초시청",강원도 속초시 장사동 631-43,강원도 속초시 장사동 631-43,쓰레기단속,1,200,쓰레기집하장,,2017-07,033-639-2337,38.2220901,128.589504,2018-09-06
"강원도 속초시청",강원도 속초시 금호동 488-2,강원도 속초시 금호동 488-2,쓰레기단속,1,200,쓰레기집하장,,2017-07,033-639-2337,38.206425,128.586139,2018-09-06
"강원도 속초시청",강원도 속초시 금호동 625-2,강원도 속초시 금호동 625-2,쓰레기단속,1,200,쓰레기집하장,,2017-07,033-639-2337,38.207174,128.582032,2018-09-06
"강원도 속초시청",강원도 속초시 교동 627-4,강원도 속초시 교동 627-4,쓰레기단속,1,200,쓰레기집하장,,2017-07,033-639-2337,38.205651,128.581721,2018-09-06
"강원도 속초시청",강원도 속초시 청학동 483-15,강원도 속초시 청학동 483-15,쓰레기단속,1,200,쓰레기집하장,,2017-07,033-639-2337,38.202245,128.585602,2018-09-06
"강원도 속초시청",강원도 속초시 선사로 1길,강원도 속초시 조양동  1527-5,생활방범,3,200,도로 삼방향,30,2017-09,033-639-2136,38.187354,128.592449,2018-09-06
"강원도 속초시청",강원도 속초시 조양동 1383-3,강원도 속초시 조양동 1383-4,생활방범,3,200,도로 삼방향,30,2017-09,033-639-2136,38.191616,128.598768,2018-09-06
"강원도 속초시청",강원도 속초시 미시령로3489번길 중앙초 뒷골목,강원도 속초시 금호동 623-53,생활방범,2,200,도로 양방향,30,2017-02,033-639-2136,38.209351,128.582926,2018-09-06
"강원도 속초시청",강원도 속초시 동해대로3930번길 새마을 은혜식당 앞,강원도 속초시 조양동 1480,생활방범,3,200,도로 삼방향,30,2017-02,033-639-2136,38.186641,128.602809,2018-09-06
"강원도 속초시청",강원도 속초시 조양동 조양로42번길,강원도 속초시 조양동 1366-1,생활방범,2,200,도로 양방향,30,2017-02,033-639-2136,38.188833,128.596286,2018-09-06
"강원도 속초시청",강원도 속초시 싸리재길,강원도 속초시 노학동 1268,생활방범,3,200,도로 삼방향,30,2017-02,033-639-2136,38.187141,128.559174,2018-09-06
"강원도 속초시청",강원도 속초시 우렁길,강원도 속초시 동명동 531-2,생활방범,2,200,도로 양방향,30,2017-02,033-639-2136,38.208497,128.5883901,2018-09-06
"강원도 속초시청",강원도 속초시 원암학사평길 김정옥할머니,강원도 속초시 노학동 1011-55,생활방범,3,200,도로 양방향,30,2017-02,033-639-2136,38.205601,128.528578,2018-09-06
"강원도 속초시청",강원도 속초시 미시령로,강원도 속초시 노학동 1073-104,차량방범,1,500,미시령방면,30,2017-10,033-639-2136,38.205512,128.510724,2018-09-06
"강원도 속초시청",강원도 속초시 중앙로147번길,강원도 속초시 금호동 473-51,생활방범,3,200,도로 삼방향,30,2017-09,033-639-2136,38.204165,128.588459,2018-09-06
"강원도 속초시청",강원도 속초시 노리5길,강원도 속초시 노학동 620,생활방범,2,200,도로 양방향,30,2017-09,033-639-2136,38.190441,128.555048,2018-09-06
"강원도 속초시청",강원도 속초시 먹거리4길,강원도 속초시 교동 1002,생활방범,2,130,골목길양방향,30,2017-10,033-639-2136,38.194818,128.573076,2018-09-06
"강원도 속초시청",강원도 속초시 먹거리7길,강원도 속초시 교동 972,생활방범,3,130,골목길삼방향,30,2017-10,033-639-2136,38.194877,128.574205,2018-09-06
"강원도 속초시청",강원도 속초시 부월길(연포길),강원도 속초시 조양동 1371-9,생활방범,2,130,골목길양방향,30,2017-10,033-639-2136,38.188991,128.597242,2018-09-06
"강원도 속초시청",강원도 속초시 중앙로205번길,강원도 속초시 동명동 452-8,생활방범,2,200,도로 양방향,30,2017-02,033-639-2136,38.209296,128.592202,2018-09-06
"강원도 속초시청",강원도 속초시 수복로259번길,강원도 속초시 동명동 259-3,생활방범,2,200,도로 양방향,30,2017-02,033-639-2136,38.210813,128.590648,2018-09-06
"강원도 속초시청",강원도 속초시 번영로23번길 이안컴퓨터,강원도 속초시 교동 636-162,생활방범,2,200,도로 양방향,30,2017-02,033-639-2136,38.203228,128.580303,2018-09-06
"강원도 속초시청",강원도 속초시 청초호반로(중앙로50번길),강원도 속초시 교동 664-304,생활방범,2,200,도로 양방향,30,2017-02,033-639-2136,38.1992901,128.582915,2018-09-06
"강원도 속초시청",강원도 속초시 먹거리4길(대게나라),강원도 속초시 교동 995,생활방범,2,200,도로 양방향,30,2017-02,033-639-2136,38.1959901,128.573828,2018-09-06
"강원도 속초시청",강원도 속초시 먹거리2길,강원도 속초시 교동 1009,생활방범,2,200,도로 양방향,30,2017-02,033-639-2136,38.193754,128.574349,2018-09-06
"강원도 속초시청",강원도 속초시 미시령로,강원도 속초시 노학동 1073-104,차량방범,1,500,속초방면,30,2017-02,033-639-2136,38.205427,128.510659,2018-09-06
"강원도 속초시청",강원도 속초시 해오름로,강원도 속초시 조양동 1426-3,생활방범,3,200,속초해변앞 3방향,30,2017-02,033-639-2136,38.190405,128.602283,2018-09-06
"강원도 속초시청",강원도 속초시 동해대로(장사경계),강원도 속초시 장사동 산10-2,차량방범,1,500,속초방면,30,2017-07,033-639-2136,38.2204801,128.564081,2018-09-06
"강원도 속초시청",강원도 속초시 번영로97번길,강원도 속초시 동명동 512-1,생활방범,2,200,영랑호진입 및 보광사방면,30,2017-07,033-639-2136,38.211517,128.584768,2018-09-06
"강원도 속초시청",강원도 속초시 노학동 1254,강원도 속초시 노학동 1254,쓰레기단속,1,200,쓰레기집하장,,2017-07,033-639-2337,38.194581,128.563984,2018-09-06
"강원도 속초시청",강원도 속초시 조양동 1511-6,강원도 속초시 조양동 1511-6,쓰레기단속,1,200,쓰레기집하장,,2017-07,033-639-2337,38.188133,128.588058,2018-09-06
"강원도 속초시청",강원도 속초시 대포동 542-1,강원도 속초시 대포동 542-1,쓰레기단속,1,200,쓰레기집하장,,2017-07,033-639-2337,38.183011,128.605699,2018-09-06
"강원도 속초시청",강원도 속초시 교동 799-163,강원도 속초시 교동 799-163,쓰레기단속,1,200,쓰레기집하장,,2017-07,033-639-2337,38.201745,128.569111,2018-09-06
"강원도 속초시청",강원도 속초시 중앙로 183 (중앙동),강원도 속초시 중앙동 469-6,시설물관리,5,130,속초시청내,30,2017-08,033-639-2132,38.206994,128.591945,2018-09-06
"강원도 속초시청",강원도 속초시 번영로23번길 8-29 (교동),강원도 속초시 교동 636-14,교통단속,1,41,360도전방면,30,2017-11,033-639-2188,38.2038422,128.5795653,2018-09-06
"강원도 속초시청",강원도 속초시 교동 832-3,강원도 속초시 교동 832-3,교통단속,1,41,360도전방면,30,2017-07,033-639-2188,38.1971121,128.5766087,2018-09-06
"강원도 속초시청",강원도 속초시 조양동 1498-8,강원도 속초시 조양동 1498-8,교통단속,1,41,360도전방면,30,2017-08,033-639-2188,38.1897887,128.5805316,2018-09-06
"강원도 속초시청",강원도 속초시 조양동 566-10,강원도 속초시 조양동 566-10,교통단속,1,41,360도전방면,30,2017-01,033-639-2188,38.1920276,128.5790493,2018-09-06
"강원도 속초시청",강원도 속초시 조양동 1498-8,강원도 속초시 조양동 1498-8,교통단속,1,41,360도전방면,30,2017-08,033-639-2188,38.1897887,128.5805316,2018-09-06
"강원도 속초시청",강원도 속초시 조양동 1420-41,강원도 속초시 조양동 1420-41,교통단속,1,41,360도전방면,30,2017-01,033-639-2188,38.1900207,128.5985679,2018-09-06
"강원도 속초시청",강원도 속초시 대포동 336,강원도 속초시 대포동 336,교통단속,1,41,360도전방면,30,2017-01,033-639-2188,38.1732086,128.6049164,2018-09-06
"강원도 속초시청",강원도 속초시 교동 780-239,강원도 속초시 교동 780-239,교통단속,1,41,360도전방면,30,2017-11,033-639-2188,38.2070068,128.5772782,2018-09-06
"강원도 속초시청",강원도 속초시 수복로234번길,강원도 속초시 동명동 443-1,생활방범,2,200,골목길양방향,30,2017-07,033-639-2136,38.208609,128.591422,2018-09-06
"강원도 속초시청",강원도 속초시 중앙로 183 (중앙동),강원도 속초시 중앙동 469-6,시설물관리,2,200,시청주차장,30,2017-12,033-639-2132,38.206994,128.591945,2018-09-06
"강원도 속초시청",강원도 속초시 금호동 624-1,강원도 속초시 금호동 624-1,교통단속,1,41,360도전방면,30,2017-12,033-639-2188,38.2085215,128.5817902,2018-09-06
"강원도 속초시청",강원도 속초시 청호동 1342,강원도 속초시 청호동 1342,교통단속,1,41,360도전방면,30,2017-01,033-639-2188,38.1928679,128.5956824,2018-09-06
"강원도 속초시청",강원도 속초시 설악동 41-3,강원도 속초시 설악동 41-3,교통단속,1,41,360도전방면,30,2017-07,033-639-2188,38.1682406,128.5153849,2018-09-06
"강원도 속초시청",강원도 속초시 중앙시장로 64 (중앙동),강원도 속초시 중앙동 494-2,교통단속,1,41,360도전방면,30,2017-11,033-639-2188,38.2059152,128.5888054,2018-09-06
"강원도 속초시청",강원도 속초시 교동 657-47,강원도 속초시 교동 657-47,교통단속,1,41,360도전방면,30,2017-11,033-639-2188,38.1997101,128.5787208,2018-09-06
"강원도 속초시청",강원도 속초시 금호동 473-51,강원도 속초시 금호동 473-51,교통단속,1,41,360도전방면,30,2017-06,033-639-2188,38.2041349,128.5886494,2018-09-06
"강원도 속초시청",강원도 속초시 수복로234번길 13 (동명동),강원도 속초시 동명동 450-1,교통단속,1,41,360도전방면,30,2017-11,033-639-2188,38.2091281,128.5914986,2018-09-06
"강원도 속초시청",강원도 속초시 청초호반로 328 (중앙동),강원도 속초시 중앙동 477-1,교통단속,1,41,360도전방면,30,2017-12,033-639-2188,38.2031856,128.5918091,2018-09-06
"강원도 속초시청",강원도 속초시 청학동 641-1,강원도 속초시 청학동 641-1,교통단속,1,41,360도전방면,30,2017-08,033-639-2188,38.201182,128.5831476,2018-09-06
"강원도 속초시청",강원도 속초시 중앙로 132 (금호동),강원도 속초시 금호동 479-5,교통단속,1,41,360도전방면,30,2017-06,033-639-2188,38.2024801,128.5903796,2018-09-06
"강원도 속초시청",강원도 속초시 금호동 473-51,강원도 속초시 금호동 473-51,교통단속,1,41,360도전방면,30,2017-06,033-639-2188,38.2041349,128.5886494,2018-09-06
"강원도 속초시청",강원도 속초시 중앙동 503-4,강원도 속초시 중앙동 503-4,교통단속,1,41,360도전방면,30,2017-06,033-639-2188,38.2079881,128.5863545,2018-09-06
"강원도 속초시청",강원도 속초시 중앙시장로 102 (중앙동),강원도 속초시 중앙동 472-41,교통단속,1,41,360도전방면,30,2017-08,033-639-2188,38.2046787,128.5905115,2018-09-06
"강원도 속초시청",강원도 속초시 해오름로 99 (대포동),강원도 속초시 대포동 542,시설물관리,8,41,하수처리장,20,2017-04,033-639-2938,38.1829818,128.6056992,2018-09-06
"강원도 속초시청",강원도 속초시 청초호반로 10 (조양동),강원도 속초시 조양동 1034-8,시설물관리,3,41,1중계펌프장,20,2017-04,033-639-2938,38.1907101,128.5939479,2018-09-06
"강원도 속초시청",강원도 속초시 설악산로 7-1 (대포동),강원도 속초시 대포동 182-3,시설물관리,2,41,2중계펌프장,20,2017-04,033-639-2938,38.1624726,128.6068441,2018-09-06
"강원도 속초시청",강원도 속초시 장사항해안길 2 (장사동),강원도 속초시 장사동 577-42,시설물관리,2,41,3중계펌프장,20,2017-04,033-639-2938,38.2219897,128.5901603,2018-09-06
"강원도 속초시청",강원도 속초시 제집골길 4 (대포동),강원도 속초시 대포동 426,시설물관리,2,41,4중계펌프장,20,2017-12,033-639-2938,38.1755585,128.605551,2018-09-06
"강원도 속초시청",강원도 속초시 해오름로 99 (대포동),강원도 속초시 대포동 542,시설물관리,3,41,음식물처리장,20,2017-04,033-639-2938,38.1829817,128.6056992,2018-09-06
"강원도 속초시청",강원도 속초시 해오름로 99 (대포동),강원도 속초시 대포동 542,시설물관리,2,41,음식물처리장,20,2017-02,033-639-2938,38.1829817,128.6056992,2018-09-06
"강원도 속초시청",강원도 속초시 해오름로 99 (대포동),강원도 속초시 대포동 542,시설물관리,2,52,음식물처리장,20,2017-11,033-639-2938,38.1829817,128.6056992,2018-09-06
"강원도 속초시청",강원도 속초시 동해대로 3664 (대포동),강원도 속초시 대포동 178-9,시설물관리,5,41,관광안내소,30,2017-12,033-639-2539,38.1631289,128.6085042,2018-09-06
"강원도 속초시청",강원도 속초시 중앙시장로 117 (중앙동),강원도 속초시 중앙동 475-9,교통단속,1,41,360도전방면,30,2017-04,033-639-2188,38.2045197,128.5912924,2018-09-06
"강원도 속초시청",강원도 속초시 조양로 89 (조양동),강원도 속초시 조양동 1082-1,시설물관리,16,52,속초시정보스포츠센터,30,2017-11,033-639-3714,38.186696,128.590752,2018-09-06
"강원도 속초시청",강원도 속초시 동해대로 3664 (대포동),강원도 속초시 대포동 178-9,시설물관리,2,41,관광안내소,30,2017-04,033-639-2539,38.1631289,128.6085042,2018-09-06
"강원도 속초시청",강원도 속초시 중앙로 331 (영랑동),강원도 속초시 영랑동 163-1,어린이보호,3,200,영랑초등학교,30,2017-06,033-639-2494,38.2178448,128.5909731,2018-09-06
"강원도 속초시청",강원도 속초시 번영로105번길 11 (중앙동),강원도 속초시 중앙동 509-3,어린이보호,5,200,중앙초등학교,30,2017-07,033-639-2494,38.2105937,128.5849001,2018-09-06
"강원도 속초시청",강원도 속초시 온천로 107 (노학동),강원도 속초시 노학동 620,어린이보호,2,200,온정초등학교,30,2017-08,033-639-2494,38.1901317,128.5544598,2018-09-06
"강원도 속초시청",강원도 속초시 소평로 175 (조양동),강원도 속초시 조양동 562-5,어린이보호,1,200,청대초등학교,30,2017-05,033-639-2494,38.1916172,128.5767834,2018-09-06
"강원도 속초시청",강원도 속초시 수복로 117 (청학동),강원도 속초시 청학동 638,어린이보호,4,200,속초초등학교,30,2017-08,033-639-2494,38.2025797,128.581059,2018-09-06
"강원도 속초시청",강원도 속초시 청호로 60 (청호동),강원도 속초시 청호동 432-38,어린이보호,3,200,청호초등학교,30,2017-06,033-639-2494,38.1958099,128.5977568,2018-09-06
"강원도 속초시청",강원도 속초시 만천1길 67 (교동),강원도 속초시 교동 779-16,어린이보호,4,200,교동초등학교,30,2017-06,033-639-2494,38.2032023,128.5744748,2018-09-06
"강원도 속초시청",강원도 속초시 동해대로 3965 (조양동),강원도 속초시 조양동 1396,어린이보호,4,200,조양초등학교,30,2017-08,033-639-2494,38.1884854,128.5980234,2018-09-06
"강원도 속초시청",강원도 속초시 조양로118번길 9 (조양동),강원도 속초시 조양동 1540-2,어린이보호,2,200,청봉초등학교,30,2017-06,033-639-2494,38.1881783,128.5869594,2018-09-06
"강원도 속초시청",강원도 속초시 배움터길 42 (노학동),강원도 속초시 노학동 1-36,어린이보호,5,200,소야초등학교,30,2017-05,033-639-2494,38.1997536,128.5664728,2018-09-06
"강원도 속초시청",강원도 속초시 청봉로 51 (설악동),강원도 속초시 설악동 358,어린이보호,1,200,설악초등학교,30,2017-06,033-639-2494,38.1639468,128.5401897,2018-09-06
"강원도 속초시청",강원도 속초시 동해대로4511번길 32 (장사동),강원도 속초시 장사동 405-5,어린이보호,2,200,속초청해학교,30,2017-06,033-639-2494,38.2188565,128.5603295,2018-09-06
"강원도 속초시청",강원도 속초시 온천로 107 (노학동),강원도 속초시 노학동 620,어린이보호,2,200,온정초등학교,30,2017-08,033-639-2494,38.1901317,128.5544598,2018-09-06
"강원도 속초시청",강원도 속초시 소평로 175 (조양동),강원도 속초시 조양동 551-1,어린이보호,1,200,청대초등학교,30,2017-05,033-639-2494,38.1911364,128.5765102,2018-09-06
"강원도 속초시청",강원도 속초시 조양로118번길 9 (조양동),강원도 속초시 조양동 1540-2,어린이보호,1,200,청봉초등학교,30,2017-06,033-639-2494,38.1881783,128.5869594,2018-09-06
"강원도 속초시청",강원도 속초시 배움터길 42 (노학동),강원도 속초시 노학동 1-36,어린이보호,3,200,소야초등학교,30,2017-05,033-639-2494,38.1997536,128.5664728,2018-09-06
"강원도 속초시청",강원도 속초시 청봉로 51 (설악동),강원도 속초시 설악동 358,어린이보호,1,200,설악초등학교,30,2017-06,033-639-2494,38.1639468,128.5401897,2018-09-06
"강원도 속초시청",강원도 속초시 번영로179번길 9 (영랑동),강원도 속초시 영랑동 588,어린이보호,5,200,반야어린이집,30,2017-06,033-639-2494,38.2146428,128.588299,2018-09-06
"강원도 속초시청",강원도 속초시 도문동 산308-3,강원도 속초시 도문동 산308-3,시설물관리,3,40,목우재터널,30,2017-05,033-639-2494,38.1738147,128.5289818,2018-09-06
"강원도 속초시청",강원도 속초시 장사항해안길 2 (장사동),강원도 속초시 장사동 577-42,재난재해,1,41,360도전방면,7,2017-12,033-639-2759,38.2219897,128.5901603,2018-09-06
"강원도 속초시청",강원도 속초시 방축길 217-1 (대포동),강원도 속초시 대포동 350,어린이보호,5,200,대포초등학교,30,2017-06,033-639-2494,38.1740075,128.6031973,2018-09-06
"강원도 속초시청",강원도 속초시 만천1길 4-3 (교동),강원도 속초시 교동 760-12,재난재해,1,41,360도전방면,7,2017-12,033-639-2759,38.1982041,128.5755133,2018-09-06
"강원도 속초시청",강원도 속초시 교동 676-8,강원도 속초시 교동 676-8,재난재해,1,41,360도전방면,7,2017-12,033-639-2759,38.1930651,128.5786054,2018-09-06
"강원도 속초시청",강원도 속초시 조양동 1450-99,강원도 속초시 조양동 1450-99,재난재해,1,41,360도전방면,7,2017-12,033-639-2759,38.1934899,128.6012859,2018-09-06
"강원도 속초시청",강원도 속초시 대포동 842,강원도 속초시 대포동 842,재난재해,1,41,360도전방면,7,2017-12,033-639-2759,38.1641382,128.6088115,2018-09-06
"강원도 속초시청",강원도 속초시 설악동 산57-2,강원도 속초시 설악동 산57-2,재난재해,1,41,360도전방면,7,2017-12,033-639-2759,38.1638805,128.5467395,2018-09-06
"강원도 속초시청",강원도 속초시 영랑동 20-16,강원도 속초시 영랑동 20-16,재난재해,1,41,360도전방면,7,2017-07,033-639-2759,38.2145579,128.5991742,2018-09-06
"강원도 속초시청",강원도 속초시 청호해안길 109,강원도 속초시 청호동 1224-1,재난재해,1,41,360도전방면,7,2017-07,033-639-2759,38.1988855,128.5963936,2018-09-06
"강원도 속초시청",강원도 속초시 설악동 296-9,강원도 속초시 설악동 296-9,재난재해,1,41,360도전방면,7,2017-07,033-639-2759,38.1669218,128.5279083,2018-09-06
"강원도 속초시청",강원도 속초시 노학동 400-8,강원도 속초시 노학동 400-8,재난재해,1,41,360도전방면,7,2017-07,033-639-2759,38.1883609,128.5581906,2018-09-06
"강원도 속초시청",강원도 속초시 장사동 307-9,강원도 속초시 장사동 307-9,재난재해,1,41,360도전방면,7,2017-07,033-639-2759,38.2110868,128.5501721,2018-09-06
"강원도 속초시청",강원도 속초시 영랑동 1-3,강원도 속초시 영랑동 1-3,재난재해,1,41,360도전방면,0,2017-02,033-639-2264,38.2139397,128.6009963,2018-09-06
"강원도 속초시청",강원도 속초시 대포동 678-1,강원도 속초시 대포동 678-1,재난재해,1,41,360도전방면,0,2017-02,033-639-2264,38.179931,128.6090411,2018-09-06
"강원도 속초시청",강원도 속초시 청호로5길 17 (청호동),강원도 속초시 청호동 1333-2,재난재해,1,41,360도전방면,0,2017-06,033-639-2264,38.1955202,128.5991004,2018-09-06
"강원도 속초시청",강원도 속초시 해오름로 99 (대포동),강원도 속초시 대포동 542,재난재해,1,41,360도전방면,0,2017-06,033-639-2264,38.1829817,128.6056992,2018-09-06
"강원도 속초시청",강원도 속초시 제집골길 6 (대포동),강원도 속초시 대포동 435,재난재해,1,41,절개지방향,7,2017-09,033-639-2759,38.1757511,128.6056142,2018-09-06
"강원도 속초시청",강원도 속초시 대포동 753-10,강원도 속초시 대포동 753-10,재난재해,1,41,절개지방향,7,2017-09,033-639-2759,38.1780442,128.6089044,2018-09-06
"강원도 속초시청",강원도 속초시 동해대로 3783 (대포동),강원도 속초시 대포동 327,재난재해,1,41,절개지방향,7,2017-09,033-639-2759,38.1730416,128.6044174,2018-09-06
"강원도 속초시청",강원도 속초시 관광로 377 (노학동),강원도 속초시 노학동 978,재난재해,2,300,360도 전방면,0,2017-01,033-639-2759,38.1933552,128.5380609,2018-09-06
"강원도 속초시청",강원도 속초시 교동 944,강원도 속초시 교동 944,생활방범,2,200,농아인협회앞놀이공원,30,2017-09,033-639-2178,38.2006268,128.5692289,2018-09-06
"강원도 속초시청",강원도 속초시 교동 926-6,강원도 속초시 교동 926-6,생활방범,2,200,통나무오리촌놀이공원,30,2017-09,033-639-2178,38.2020495,128.5673435,2018-09-06
"강원도 속초시청",강원도 속초시 교동 798-26,강원도 속초시 교동 798-26,생활방범,2,200,거산빌라앞놀이공원,30,2017-09,033-639-2178,38.2024269,128.5703504,2018-09-06
"강원도 속초시청",강원도 속초시 교동 907-6,강원도 속초시 교동 907-6,생활방범,2,200,임광미술학원앞놀이공원,30,2017-09,033-639-2178,38.200888,128.5777368,2018-09-06
"강원도 속초시청",강원도 속초시 교동 961-2,강원도 속초시 교동 961-2,생활방범,2,200,주공3차아파트앞놀이공원,30,2017-09,033-639-2178,38.1965516,128.5740675,2018-09-06
"강원도 속초시청",강원도 속초시 교동 681-8,강원도 속초시 교동 681-8,재난재해,2,130,하천수위,30,2017-02,033-639-2989,38.1933372,128.5798908,2018-09-06
"강원도 속초시청",강원도 속초시 동해대로 3757 (대포동),강원도 속초시 대포동 302-20,재난재해,1,41,절개지방향,7,2017-09,033-639-2759,38.1711098,128.6053498,2018-09-06
"강원도 속초시청",강원도 속초시 교동 902,강원도 속초시 교동 902,생활방범,2,200,주공2차아파트앞놀이공원,30,2017-09,033-639-2178,38.206573,128.5793837,2018-09-06
"강원도 속초시청",강원도 속초시 조양동 1499-1,강원도 속초시 조양동 1499-1,생활방범,2,200,부영아파트3단지놀이공원,30,2017-09,033-639-2178,38.1902545,128.5792271,2018-09-06
"강원도 속초시청",강원도 속초시 조양로 166 (조양동),강원도 속초시 조양동 1501-1,생활방범,2,200,부영아파트5단지앞놀이공원,30,2017-09,033-639-2178,38.1879885,128.5827307,2018-09-06
"강원도 속초시청",강원도 속초시 조양동 1536-3,강원도 속초시 조양동 1536-3,생활방범,2,200,동경카센터앞놀이공원,30,2017-09,033-639-2178,38.1883596,128.5930053,2018-09-06
"강원도 속초시청",강원도 속초시 청호로3길 57 (청호동),강원도 속초시 청호동 444-8,생활방범,1,200,청소년문화센터앞정문,30,2017-09,033-639-2178,38.1915943,128.5974004,2018-09-06
"강원도 속초시청",강원도 속초시 청호로3길 57 (청호동),강원도 속초시 청호동 444-8,생활방범,1,200,청소년문화센터앞후문,30,2017-09,033-639-2178,38.1915943,128.5974004,2018-09-06
"강원도 속초시청",강원도 속초시 교동 산231-46,강원도 속초시 교동 산231-46,생활방범,1,200,만리공원통학로,30,2017-03,033-639-2178,38.2041068,128.5709915,2018-09-06
"강원도 속초시청",강원도 속초시 만리공원1길 24 (교동),강원도 속초시 교동 798-25,생활방범,1,200,만리공원통학로,30,2017-03,033-639-2178,38.2031577,128.5706998,2018-09-06
"강원도 속초시청",강원도 속초시 중앙동 503-170,강원도 속초시 중앙동 503-170,생활방범,2,130,중앙초교공설운동장지하도,30,2017-03,033-639-2178,38.2082414,128.5864959,2018-09-06
"강원도 속초시청",강원도 속초시 중앙로121번길 29 (금호동),강원도 속초시 금호동 482-343,생활방범,1,200,로데오거리쉼터공원,30,2017-03,033-639-2178,38.2023786,128.5878018,2018-09-06
"강원도 속초시청",강원도 속초시 조양동 1544-3,강원도 속초시 조양동 1544-3,생활방범,3,200,청초호호수공원분수대,30,2017-07,033-639-2178,38.1913376,128.5857507,2018-09-06
"강원도 속초시청",강원도 속초시 엑스포로 18 (조양동),강원도 속초시 조양동 1544-2,생활방범,3,200,청초호호수공원농구장,30,2017-07,033-639-2178,38.1919053,128.5846547,2018-09-06
